City_ID,City,Lat,Lng,Max Temp,Humidity,Cloudiness,Wind Speed,Country,Date
0,albany,42.6001,-73.9662,57.79,44,1,12.66,US,1667857658
1,mayo,38.8876,-76.5119,78.75,45,0,8.05,US,1667857815
2,dunedin,-45.8742,170.5036,59.38,64,60,4.12,NZ,1667857661
3,kavieng,-2.5744,150.7967,82.24,75,92,4.63,PG,1667857753
4,jamestown,42.097,-79.2353,49.71,52,0,14.97,US,1667857816
5,ostrovnoy,68.0531,39.5131,30.58,93,96,5.32,RU,1667857816
6,narsaq,60.9167,-46.05,20.8,83,100,6.4,GL,1667857817
7,chapais,49.7834,-74.8492,29.98,71,99,16.55,CA,1667857818
8,lagoa,39.05,-27.9833,62.96,66,100,18.34,PT,1667857818
9,kidal,18.4411,1.4078,75.72,15,100,10.92,ML,1667857818
10,te anau,-45.4167,167.7167,61.47,54,52,2.15,NZ,1667857819
11,butaritari,3.0707,172.7902,80.11,75,34,6.71,KI,1667857819
12,rikitea,-23.1203,-134.9692,73.2,92,100,23.47,PF,1667857819
13,tarko-sale,64.9225,77.785,20.01,95,100,9.75,RU,1667857820
14,storm lake,42.6411,-95.2097,45.64,36,0,14.97,US,1667857820
15,bluff,-46.6,168.3333,56.77,70,71,6.22,NZ,1667857820
16,najran,17.4924,44.1277,65.05,28,2,1.01,SA,1667857821
17,svetlogorsk,52.6333,29.7333,44.4,84,99,10.25,BY,1667857821
18,kautokeino,69.0125,23.0412,29.43,92,95,17.29,NO,1667857821
19,tabuk,17.4189,121.4443,71.94,96,46,1.88,PH,1667857822
20,castro,-24.7911,-50.0119,55.31,72,11,6.42,BR,1667857822
21,puerto ayora,-0.7393,-90.3518,75.16,82,87,4.0,EC,1667857823
22,ushuaia,-54.8,-68.3,62.26,45,75,17.27,AR,1667857823
23,mataura,-46.1927,168.8643,63.32,53,78,2.89,NZ,1667857823
24,barddhaman,23.25,87.85,68.27,69,14,6.31,IN,1667857824
25,arraial do cabo,-22.9661,-42.0278,71.56,73,75,8.05,BR,1667857824
26,dikson,73.5069,80.5464,4.78,94,100,11.07,RU,1667857824
27,miramar,25.9873,-80.2323,82.99,64,75,17.27,US,1667857825
28,geraldton,-28.7667,114.6,63.01,82,75,4.61,AU,1667857825
29,tucuman,-26.8241,-65.2226,87.8,25,98,12.66,AR,1667857625
30,mariakani,-3.8633,39.4736,71.65,98,34,3.83,KE,1667857825
31,santa flavia,38.085,13.5351,64.38,69,13,3.0,IT,1667857826
32,tuatapere,-46.1333,167.6833,62.89,53,98,1.72,NZ,1667857826
33,hermanus,-34.4187,19.2345,57.79,86,36,8.72,ZA,1667857827
34,kota bahru,6.1333,102.2386,76.98,94,20,0.0,MY,1667857819
35,tamandare,-8.7597,-35.1047,76.93,80,83,4.54,BR,1667857827
36,kodiak,57.79,-152.4072,38.71,81,100,17.27,US,1667857827
37,saskylakh,71.9167,114.0833,-24.18,99,25,4.9,RU,1667857828
38,vao,-22.6667,167.4833,74.48,84,86,17.38,NC,1667857828
39,hounde,11.5,-3.5167,77.05,20,48,5.48,BF,1667857828
40,ribeira grande,38.5167,-28.7,63.0,63,20,11.5,PT,1667857829
41,marawi,7.9986,124.2928,68.74,93,39,2.75,PH,1667857829
42,provideniya,64.3833,-173.3,30.36,86,100,17.9,RU,1667857829
43,saint george,37.1041,-113.5841,71.44,29,0,27.63,US,1667857713
44,vaini,-21.2,-175.2,78.96,73,20,9.22,TO,1667857830
45,zhigansk,66.7697,123.3711,-9.99,95,100,5.26,RU,1667857830
46,esperance,-33.8667,121.9,57.04,82,100,15.19,AU,1667857831
47,isangel,-19.55,169.2667,73.51,94,100,0.0,VU,1667857771
48,coihaique,-45.5752,-72.0662,61.41,77,100,4.61,CL,1667857831
49,port alfred,-33.5906,26.891,63.18,92,100,3.0,ZA,1667857831
50,fomboni,-12.28,43.7425,78.26,81,6,14.74,KM,1667857832
51,cam ranh,11.9214,109.1591,73.36,88,20,3.44,VN,1667857832
52,skibbereen,51.55,-9.2667,52.11,80,75,20.96,IE,1667857832
53,mehamn,71.0357,27.8492,35.51,100,20,4.61,NO,1667857833
54,ponta do sol,32.6667,-17.1,70.72,87,77,2.84,PT,1667857833
55,bangkal,6.0667,121.0667,77.65,87,96,1.3,PH,1667857833
56,chegdomyn,51.1167,133.0167,12.76,97,58,2.04,RU,1667857834
57,norman wells,65.282,-126.8329,5.04,72,20,8.05,CA,1667857834
58,lompoc,34.6391,-120.4579,60.85,90,100,5.75,US,1667857834
59,beira,-19.8436,34.8389,77.88,82,1,10.13,MZ,1667857835
60,korla,41.7597,86.1469,47.26,38,100,1.36,CN,1667857815
61,rio grande,-32.035,-52.0986,68.11,74,2,15.3,BR,1667857835
62,san cristobal,7.7669,-72.225,77.18,87,92,3.51,VE,1667857801
63,nikolskoye,59.7035,30.7861,40.91,92,100,8.05,RU,1667857836
64,atuona,-9.8,-139.0333,76.91,70,74,14.76,PF,1667857836
65,quatre cocos,-20.2078,57.7625,73.09,77,0,8.63,MU,1667857836
66,alyangula,-13.8483,136.4192,83.26,68,100,6.11,AU,1667857837
67,new norfolk,-42.7826,147.0587,62.71,47,89,2.93,AU,1667857837
68,kruisfontein,-34.0033,24.7314,58.62,82,100,7.02,ZA,1667857837
69,yulara,-25.2406,130.9889,77.29,41,89,6.93,AU,1667857588
70,antalaha,-14.9003,50.2788,68.11,87,63,4.65,MG,1667857838
71,atherton,53.5237,-2.4935,57.88,82,100,7.0,GB,1667857838
72,akom,2.6678,12.7109,69.6,88,100,1.83,CM,1667857838
73,turba,59.0831,24.225,47.55,99,100,11.81,EE,1667857839
74,east london,-33.0153,27.9116,69.6,87,100,11.7,ZA,1667857839
75,srednekolymsk,67.45,153.6833,-14.04,100,94,5.86,RU,1667857839
76,pandan,14.0453,124.1694,80.24,86,100,7.38,PH,1667857840
77,araouane,18.9048,-3.5265,75.24,13,0,8.57,ML,1667857840
78,peachland,49.7665,-119.7357,26.58,88,100,5.97,CA,1667857841
79,leningradskiy,69.3833,178.4167,13.12,87,100,4.79,RU,1667857841
80,el alto,-4.2714,-81.2147,67.66,78,24,18.61,PE,1667857841
81,angol,-37.8,-72.7167,74.41,39,8,7.36,CL,1667857842
82,vila franca do campo,37.7167,-25.4333,63.19,86,100,6.67,PT,1667857842
83,busselton,-33.65,115.3333,53.71,88,7,10.69,AU,1667857842
84,punta arenas,-53.15,-70.9167,62.71,51,75,18.41,CL,1667857730
85,iqaluit,63.7506,-68.5145,20.93,62,75,17.27,CA,1667857843
86,basco,20.4487,121.9702,78.76,82,15,21.97,PH,1667857843
87,avenal,36.0041,-120.129,53.37,54,99,11.27,US,1667857843
88,ampanihy,-24.7,44.75,73.27,72,2,2.68,MG,1667857844
89,saint-philippe,-21.3585,55.7679,71.19,80,71,9.6,RE,1667857844
90,abu dhabi,24.4667,54.3667,80.62,84,0,3.44,AE,1667857844
91,victoria,22.2855,114.1577,71.26,93,100,10.0,HK,1667857777
92,inirida,3.8653,-67.9239,79.72,80,25,1.81,CO,1667857845
93,pumiao,22.75,108.4833,61.2,77,0,2.19,CN,1667857845
94,hualmay,-11.0964,-77.6139,66.94,74,11,7.94,PE,1667857846
95,sobolevo,54.4299,31.8996,41.59,93,100,11.68,RU,1667857846
96,padang,-0.9492,100.3543,75.25,87,99,2.98,ID,1667857807
97,goundam,16.4145,-3.6708,79.97,14,67,8.1,ML,1667857846
98,barrow,71.2906,-156.7887,24.82,86,100,10.36,US,1667857847
99,la ronge,55.1001,-105.2842,10.65,61,40,9.22,CA,1667857847
100,crotone,39.0851,17.1178,60.19,72,8,4.79,IT,1667857847
101,khatanga,71.9667,102.5,4.24,97,99,4.94,RU,1667857848
102,cape town,-33.9258,18.4232,62.11,83,0,5.75,ZA,1667857848
103,kapaa,22.0752,-159.319,82.72,73,20,14.97,US,1667857848
104,ballina,-28.8667,153.5667,64.02,88,31,5.66,AU,1667857849
105,sarangani,5.4033,125.4636,82.06,74,94,1.79,PH,1667857849
106,fairbanks,64.8378,-147.7164,19.81,70,20,4.61,US,1667857800
107,aktash,50.3,87.7333,22.95,80,100,3.74,RU,1667857849
108,chuy,-33.6971,-53.4616,60.39,78,4,9.69,UY,1667857850
109,bengkulu,-3.8004,102.2655,73.94,92,100,3.29,ID,1667857850
110,ilebo,-4.3167,20.5833,68.34,94,38,1.07,CD,1667857851
111,hunchun,42.8675,130.3581,31.17,78,1,3.98,CN,1667857851
112,cap malheureux,-19.9842,57.6142,73.47,72,0,1.99,MU,1667857852
113,qaanaaq,77.484,-69.3632,-0.53,96,100,9.04,GL,1667857852
114,vanimo,-2.6741,141.3028,78.24,88,100,3.89,PG,1667857852
115,carnarvon,-24.8667,113.6333,66.31,61,38,14.09,AU,1667857853
116,fortuna,40.5982,-124.1573,53.65,91,100,5.99,US,1667857853
117,nanortalik,60.1432,-45.2371,26.94,89,100,4.38,GL,1667857853
118,chokurdakh,70.6333,147.9167,-11.67,94,83,13.09,RU,1667857854
119,aklavik,68.2191,-135.0107,-0.4,78,40,4.61,CA,1667857854
120,palmer,42.1584,-72.3287,72.95,17,20,17.27,US,1667857854
121,sistranda,63.7256,8.834,40.96,68,99,5.79,NO,1667857855
122,keti bandar,24.1447,67.4497,77.99,69,0,6.93,PK,1667857855
123,faanui,-16.4833,-151.75,78.76,76,16,7.25,PF,1667857855
124,mar del plata,-38.0023,-57.5575,70.83,80,0,20.71,AR,1667857856
125,ambikapur,23.1167,83.2,59.97,75,33,1.52,IN,1667857856
126,road town,18.4167,-64.6167,84.29,89,40,11.5,VG,1667857856
127,muroto,33.2833,134.15,62.94,72,1,6.44,JP,1667857857
128,torbay,47.6666,-52.7314,59.76,95,100,21.85,CA,1667857857
129,pevek,69.7008,170.3133,1.53,95,10,2.73,RU,1667857857
130,kirakira,-10.4544,161.9205,82.63,79,83,7.52,SB,1667857858
131,manzil bu zalafah,36.6831,10.5843,58.8,63,0,6.33,TN,1667857858
132,hervey bay,-25.2986,152.8535,70.63,62,52,13.71,AU,1667857858
133,codrington,-38.2667,141.9667,66.13,80,2,9.6,AU,1667857745
134,nome,64.5011,-165.4064,30.27,93,100,27.63,US,1667857771
135,port hardy,50.6996,-127.4199,37.58,52,20,23.02,CA,1667857859
136,can,40.0333,27.0524,49.3,89,31,4.52,TR,1667857859
137,liwale,-9.7667,37.9333,66.51,95,8,5.01,TZ,1667857860
138,fereydun kenar,36.6864,52.5225,54.88,71,98,11.01,IR,1667857860
139,natchitoches,31.7668,-93.1335,85.98,51,0,3.44,US,1667857860
140,hithadhoo,-0.6,73.0833,81.19,78,88,18.14,MV,1667857861
141,ahipara,-35.1667,173.1667,61.03,88,82,14.85,NZ,1667857861
142,kozhva,65.1073,57.0459,27.41,96,100,7.2,RU,1667857861
143,avanigadda,16.0215,80.9181,69.87,80,6,5.01,IN,1667857862
144,grindavik,63.8424,-22.4338,42.75,87,75,14.97,IS,1667857862
145,hapur,28.7167,77.7833,70.11,68,3,4.45,IN,1667857863
146,bataipora,-22.2953,-53.2711,69.8,52,28,5.46,BR,1667857863
147,chifeng,42.2683,118.9636,32.56,41,51,5.23,CN,1667857864
148,qaqortoq,60.7167,-46.0333,23.63,91,100,5.59,GL,1667857864
149,igarka,67.4667,86.5833,17.71,95,100,7.14,RU,1667857865
150,cherskiy,68.75,161.3,-7.71,99,17,2.8,RU,1667857865
151,thompson,55.7435,-97.8558,6.96,72,20,6.91,CA,1667857866
152,yellowknife,62.456,-114.3525,7.32,85,75,9.22,CA,1667857866
153,hobart,-42.8794,147.3294,62.46,82,0,6.91,AU,1667857793
154,san lorenzo,-25.3333,-57.5333,83.59,32,20,7.0,PY,1667857866
155,hamilton,39.1834,-84.5333,65.64,24,0,9.22,US,1667857823
156,lorengau,-2.0226,147.2712,84.09,71,95,4.27,PG,1667857867
157,tasiilaq,65.6145,-37.6368,29.88,88,100,10.22,GL,1667857868
158,sitka,57.0531,-135.33,35.49,25,0,7.05,US,1667857868
159,bandarbeyla,9.4942,50.8122,77.92,74,1,4.56,SO,1667857869
160,touros,-5.1989,-35.4608,78.28,71,99,11.14,BR,1667857595
161,cidreira,-30.1811,-50.2056,62.38,81,30,13.56,BR,1667857869
162,bud,39.447,-86.1758,62.67,27,43,8.23,US,1667857870
163,mandera,3.9366,41.867,84.49,52,99,9.1,KE,1667857870
164,kedrovyy,56.1667,91.8167,27.01,97,99,3.96,RU,1667857871
165,preobrazheniye,42.9019,133.9064,37.99,79,3,8.5,RU,1667857871
166,salvador,13.8333,-88.9167,82.06,78,76,2.62,SV,1667857872
167,codajas,-3.8367,-62.0569,74.95,97,100,2.98,BR,1667857872
168,severo-yeniseyskiy,60.3725,93.0408,16.81,95,98,6.08,RU,1667857872
169,kimbe,-5.5502,150.1429,78.73,88,97,3.51,PG,1667857875
170,avarua,-21.2078,-159.775,73.45,78,75,6.91,CK,1667857876
171,lebu,-37.6167,-73.65,57.0,74,20,10.65,CL,1667857876
172,makakilo city,21.3469,-158.0858,83.61,59,40,18.41,US,1667857877
173,grand baie,-20.0182,57.5802,73.45,72,0,1.99,MU,1667857877
174,petropavlovsk-kamchatskiy,53.0452,158.6483,25.39,74,75,4.47,RU,1667857878
175,gorontalo,0.5412,123.0595,75.36,92,100,2.55,ID,1667857878
176,bambous virieux,-20.3428,57.7575,73.22,83,20,4.61,MU,1667857878
177,college,64.8569,-147.8028,19.8,69,100,4.61,US,1667857879
178,tilichiki,60.4667,166.1,17.69,93,100,6.33,RU,1667857785
179,katsuura,35.1333,140.3,59.49,91,13,9.86,JP,1667857879
180,aasiaat,68.7098,-52.8699,3.72,98,93,4.79,GL,1667857879
181,cayenne,4.9333,-52.3333,77.04,94,75,2.3,GF,1667857647
182,upernavik,72.7868,-56.1549,8.91,88,95,6.02,GL,1667857880
183,voznesenye,61.0106,35.4781,39.67,84,100,13.44,RU,1667857880
184,arlit,18.7369,7.3853,74.79,18,6,9.89,NE,1667857881
185,kavaratti,10.5669,72.642,81.36,73,37,5.28,IN,1667857881
186,reni,45.4573,28.2932,45.16,89,4,5.99,UA,1667857881
187,vardo,70.3705,31.1107,35.58,80,100,2.3,NO,1667857882
188,rock springs,41.5875,-109.2029,53.04,46,0,23.02,US,1667857715
189,oranjemund,-28.55,16.4333,60.46,89,8,8.34,NA,1667857882
190,trebinje,42.7119,18.3442,55.76,72,0,5.75,BA,1667857882
191,gillette,44.2911,-105.5022,47.32,49,0,26.46,US,1667857883
192,termiz,37.2242,67.2783,48.29,81,75,11.5,UZ,1667857883
193,protivin,49.1995,14.2172,43.9,91,95,3.87,CZ,1667857884
194,fuenlabrada,40.2842,-3.7942,60.17,68,20,3.44,ES,1667857884
195,vila velha,-20.3297,-40.2925,75.15,77,40,5.75,BR,1667857884
196,sur,22.5667,59.5289,82.36,61,89,10.6,OM,1667857885
197,georgetown,5.4112,100.3354,80.24,89,20,2.3,MY,1667857688
198,nishihara,26.1842,127.7558,72.68,89,75,9.22,JP,1667857885
199,hilo,19.7297,-155.09,82.13,72,75,5.01,US,1667857886
200,tuktoyaktuk,69.4541,-133.0374,1.4,78,40,8.05,CA,1667857886
201,pangnirtung,66.1451,-65.7125,14.0,48,20,6.91,CA,1667857886
202,pasighat,28.0667,95.3333,62.51,71,0,3.31,IN,1667857887
203,benjamin constant,-4.3831,-70.0311,91.45,52,0,1.14,BR,1667857887
204,silchar,24.8167,92.8,65.14,91,0,3.24,IN,1667857887
205,warrington,53.3925,-2.5802,58.32,84,75,10.36,GB,1667857626
206,bethel,41.3712,-73.414,73.76,17,0,9.22,US,1667857888
207,wanning,18.8003,110.3967,72.28,94,99,9.44,CN,1667857888
208,dicabisagan,17.0818,122.4157,76.55,91,93,2.93,PH,1667857888
209,morondava,-20.2833,44.2833,74.8,81,42,9.64,MG,1667857863
210,muros,42.7762,-9.0603,65.08,77,53,26.6,ES,1667857889
211,lasa,46.6166,10.7002,45.48,65,67,2.01,IT,1667857889
212,keta,5.9179,0.9879,84.42,77,96,8.88,GH,1667857889
213,ilulissat,69.2167,-51.1,-6.45,88,14,6.4,GL,1667857890
214,cabo san lucas,22.8909,-109.9124,85.6,65,10,11.9,MX,1667857818
215,milkovo,54.7167,158.6167,14.67,87,42,4.61,RU,1667857890
216,abu samrah,35.3029,37.1841,59.7,68,100,6.46,SY,1667857891
217,sangueya,10.7,-14.3667,77.49,88,85,1.5,GN,1667857891
218,sabha,27.0377,14.4283,60.93,46,0,8.61,LY,1667857891
219,bredasdorp,-34.5322,20.0403,59.09,85,41,4.79,ZA,1667857892
220,labytnangi,66.6572,66.4183,23.45,93,100,4.0,RU,1667857892
221,puerto madryn,-42.7692,-65.0385,79.81,30,43,25.23,AR,1667857879
222,vanavara,60.34,102.2797,20.23,91,100,10.29,RU,1667857892
223,smidovich,48.6,133.8167,28.51,72,30,7.02,RU,1667857893
224,madera,37.1666,-119.8343,53.53,93,100,3.24,US,1667857852
225,klaksvik,62.2266,-6.589,49.12,91,98,32.79,FO,1667857893
226,airai,-8.9266,125.4092,63.28,82,100,1.23,TL,1667857894
227,san alberto,7.7611,-73.3922,81.45,85,96,1.61,CO,1667857894
228,sorland,67.667,12.6934,42.66,66,18,22.32,NO,1667857894
229,gongzhuling,43.5008,124.8198,33.6,61,24,9.78,CN,1667857895
230,aracuai,-16.8497,-42.0703,75.88,58,95,6.06,BR,1667857895
231,atlantic city,39.3643,-74.4229,75.38,31,0,14.97,US,1667857655
232,mahebourg,-20.4081,57.7,73.26,83,20,4.61,MU,1667857895
233,samarai,-10.6167,150.6667,81.72,76,13,5.53,PG,1667857896
234,dunda,-8.1167,34.25,71.56,52,73,3.22,TZ,1667857896
235,metkovic,43.0542,17.6483,46.87,83,18,2.98,HR,1667857896
236,ashoknagar,24.5667,77.7167,68.18,52,71,7.05,IN,1667857897
237,sovetskoye,52.2861,85.4131,31.39,79,100,3.91,RU,1667857897
238,buraydah,26.326,43.975,70.25,66,0,7.4,SA,1667857729
239,severobaykalsk,55.65,109.3167,27.32,70,100,8.7,RU,1667857898
240,longyearbyen,78.2186,15.6401,24.64,93,75,5.75,SJ,1667857898
241,satipo,-11.2522,-74.6386,77.52,69,73,1.59,PE,1667857898
242,bafoulabe,13.8065,-10.8321,84.07,24,90,4.52,ML,1667857899
243,suna,57.8338,50.0588,31.17,95,98,9.48,RU,1667857899
244,astoria,46.1879,-123.8313,42.85,92,100,9.22,US,1667857674
245,port-gentil,-0.7193,8.7815,80.56,89,40,8.05,GA,1667857899
246,toowoomba,-27.55,151.9667,61.25,75,74,5.99,AU,1667857900
247,tiksi,71.6872,128.8694,1.27,91,100,18.77,RU,1667857900
248,la baule-escoublac,47.2922,-2.364,56.86,87,0,14.97,FR,1667857900
249,ancud,-41.8697,-73.8203,55.06,89,78,6.85,CL,1667857901
250,wewak,-3.5534,143.6268,77.68,89,99,6.13,PG,1667857901
251,ghorawal,24.7667,82.7833,64.08,65,42,3.04,IN,1667857901
252,mount gambier,-37.8333,140.7667,65.59,69,0,8.12,AU,1667857902
253,saldanha,-33.0117,17.9442,60.53,87,6,7.0,ZA,1667857902
254,yerbogachen,61.2767,108.0108,19.89,95,100,7.0,RU,1667857618
255,channel-port aux basques,47.5702,-59.1367,54.41,97,100,19.51,CA,1667857903
256,altagracia de orituco,9.8601,-66.3814,77.29,78,89,2.01,VE,1667857903
257,vrangel,42.7297,133.0839,38.3,75,1,9.48,RU,1667857903
258,topola,44.2542,20.6825,51.08,87,81,2.71,RS,1667857904
259,mezen,65.8522,44.24,33.84,99,100,5.64,RU,1667857904
260,brokopondo,4.75,-55.1667,76.3,88,100,4.72,SR,1667857904
261,kismayo,-0.3582,42.5454,77.63,86,36,7.45,SO,1667857905
262,sann,26.0418,68.1378,72.61,42,12,6.91,PK,1667857905
263,petrila,45.45,23.4167,49.12,91,100,0.63,RO,1667857905
264,sept-iles,50.2001,-66.3821,48.2,78,40,14.97,CA,1667857732
265,verkhnyaya inta,65.9811,60.3094,25.39,92,100,12.37,RU,1667857906
266,almeirim,-1.5233,-52.5817,76.03,92,100,2.06,BR,1667857701
267,inzer,54.2167,57.5556,26.47,95,100,2.44,RU,1667857856
268,zemio,5.0314,25.1361,69.15,95,95,1.19,CF,1667857906
269,goderich,43.7501,-81.7165,46.9,53,6,16.11,CA,1667857727
270,turukhansk,65.8167,87.9833,16.41,95,100,11.95,RU,1667857907
271,darhan,49.4867,105.9228,29.44,57,66,6.4,MN,1667857907
272,sahuaripa,29.05,-109.2333,83.93,19,96,3.44,MX,1667857907
273,zhezkazgan,47.8043,67.7144,29.64,73,77,7.96,KZ,1667857908
274,champerico,14.3,-91.9167,81.14,72,69,5.01,GT,1667857908
275,solnechnyy,50.7214,136.6319,24.78,64,96,2.55,RU,1667857908
276,port elizabeth,-33.918,25.5701,64.31,87,0,10.36,ZA,1667857909
277,mount vernon,40.9126,-73.8371,75.43,28,20,13.8,US,1667857765
278,mawlaik,23.6333,94.4167,65.97,90,0,1.12,MM,1667857909
279,oussouye,12.485,-16.5469,80.69,55,100,6.2,SN,1667857910
280,moroni,-11.7022,43.2551,76.06,79,3,5.82,KM,1667857910
281,port blair,11.6667,92.75,78.84,83,40,2.3,IN,1667857870
282,bairiki,1.3292,172.9752,82.4,65,40,4.61,KI,1667857910
283,formosa,-26.1775,-58.1781,84.18,34,20,4.61,AR,1667857911
284,jalingo,8.8833,11.3667,78.21,38,79,3.11,NG,1667857911
285,berlevag,70.8578,29.0864,35.55,87,75,0.0,NO,1667857912
286,anadyr,64.75,177.4833,28.9,92,75,17.9,RU,1667857912
287,dombarovskiy,50.7587,59.5386,22.66,98,52,7.23,RU,1667857912
288,dargaville,-35.9333,173.8833,58.14,96,100,12.53,NZ,1667857913
289,nikolayevka,53.1257,47.2041,30.99,89,96,7.09,RU,1667857913
290,vostok,46.4856,135.8833,26.01,92,35,4.32,RU,1667857913
291,krutinka,56.0055,71.5113,25.54,92,100,4.41,RU,1667857914
292,jiexiu,37.0244,111.9125,45.73,49,2,2.01,CN,1667857914
293,bezhetsk,57.7851,36.6965,34.61,97,100,9.19,RU,1667857914
294,batagay-alyta,67.8006,130.4114,-2.92,89,100,2.91,RU,1667857915
295,chor,25.5167,69.7667,74.41,38,3,6.24,PK,1667857915
296,kutum,14.2,24.6667,69.64,25,12,7.56,SD,1667857915
297,sharan,54.8167,54.0,26.51,95,100,7.99,RU,1667857916
298,san julian,21.0167,-102.1667,78.78,15,1,5.3,MX,1667857916
299,pacific grove,36.6177,-121.9166,60.48,69,20,11.5,US,1667857916
300,sembe,1.6481,14.5806,70.77,98,97,0.74,CG,1667857917
301,taldan,53.6667,124.8,6.87,97,27,0.6,RU,1667857917
302,san quintin,30.4833,-115.95,68.31,67,85,14.92,MX,1667857917
303,bermejo,-32.8833,-68.8,93.11,13,0,10.36,AR,1667857918
304,atambua,-9.1061,124.8925,76.3,82,100,0.83,ID,1667857918
305,nantucket,41.2835,-70.0995,68.14,90,0,13.8,US,1667857887
306,aitape,-3.1374,142.3475,77.05,90,100,6.08,PG,1667857918
307,bonfim,3.0833,-59.95,77.41,85,100,5.84,BR,1667857919
308,kieta,-6.2167,155.6333,83.19,73,28,3.85,PG,1667857919
309,sisimiut,66.9395,-53.6735,11.8,84,7,10.63,GL,1667857919
310,pisco,-13.7,-76.2167,68.05,68,0,13.8,PE,1667857882
311,zhangzhou,24.5133,117.6556,69.73,92,74,1.21,CN,1667857655
312,belmonte,-15.8631,-38.8828,72.77,72,81,9.98,BR,1667857920
313,adet,11.2644,37.4888,55.98,63,16,5.32,ET,1667857920
314,bathsheba,13.2167,-59.5167,83.01,78,20,16.11,BB,1667857921
315,chernyakhovsk,54.6335,21.8156,45.86,83,99,10.67,RU,1667857921
316,marsabit,2.3284,37.9899,69.93,62,91,11.41,KE,1667857921
317,fort nelson,58.8053,-122.7002,8.94,59,20,3.44,CA,1667857922
318,tubuala,9.5167,-79.0333,76.5,91,100,6.91,PA,1667857922
319,sao joao da barra,-21.6403,-41.0511,73.49,72,21,7.61,BR,1667857923
320,souillac,-20.5167,57.5167,71.98,83,20,4.61,MU,1667857923
321,evans,33.5337,-82.1307,81.03,60,20,8.05,US,1667857924
322,tura,25.5198,90.2201,63.84,84,2,3.4,IN,1667857811
323,oranjestad,12.524,-70.027,82.35,94,40,6.91,AW,1667857759
324,wiwili,13.6268,-85.8254,83.75,72,92,1.28,NI,1667857925
325,guerrero negro,27.9769,-114.0611,69.39,65,88,14.16,MX,1667857925
326,pauini,-7.7136,-66.9764,90.27,34,15,1.14,BR,1667857925
327,soto la marina,23.7667,-98.2167,81.77,62,63,11.59,MX,1667857926
328,atar,20.5169,-13.0499,80.92,15,0,2.77,MR,1667857927
329,caravelas,-17.7125,-39.2481,71.4,70,100,6.76,BR,1667857927
330,ambon,-3.6954,128.1814,77.23,15,20,9.22,ID,1667857928
331,nurota,40.5614,65.6886,41.4,67,100,7.38,UZ,1667857929
332,parfenyevo,58.484,43.4088,32.92,95,100,7.36,RU,1667857929
333,evensk,61.95,159.2333,25.5,84,100,3.65,RU,1667857930
334,nemuro,43.3236,145.575,44.13,66,100,4.38,JP,1667857930
335,smithers,54.7804,-127.1743,14.32,44,75,9.22,CA,1667857803
336,coolum beach,-26.5333,153.1,70.34,91,89,9.42,AU,1667857932
337,buala,-8.145,159.5921,83.16,76,90,7.4,SB,1667857933
338,furano,43.2818,142.4743,33.8,89,75,3.13,JP,1667857933
339,naze,28.3667,129.4833,61.72,67,13,9.73,JP,1667857935
340,alice springs,-23.7,133.8833,74.75,23,100,6.91,AU,1667857936
341,acapulco,16.8634,-99.8901,85.82,74,20,9.22,MX,1667857720
342,mayumba,-3.432,10.6554,77.63,90,84,6.04,GA,1667857936
343,jacareacanga,-6.2222,-57.7528,75.02,95,100,5.41,BR,1667857937
344,bom jesus do itabapoana,-21.1339,-41.6797,68.86,82,93,6.26,BR,1667857937
345,axim,4.8699,-2.2405,78.57,86,100,5.82,GH,1667857938
346,deep river,46.1001,-77.4995,47.95,59,38,11.74,CA,1667857938
347,bonavista,48.6499,-53.1147,51.78,96,100,14.58,CA,1667857938
348,coahuayana,18.7333,-103.6833,84.94,67,10,5.55,MX,1667857939
349,nicoya,10.1483,-85.452,77.59,90,100,3.42,CR,1667857939
350,sibolga,1.7427,98.7792,75.45,84,100,3.47,ID,1667857939
351,marion,39.7684,-86.1555,63.03,25,40,10.36,US,1667857798
352,gejiu,23.306,103.1635,44.62,97,33,2.13,CN,1667857940
353,hobyo,5.3505,48.5268,80.02,74,11,8.32,SO,1667857940
354,mporokoso,-9.3727,30.125,62.83,85,100,3.04,ZM,1667857941
355,coquimbo,-29.9533,-71.3436,58.73,82,100,9.22,CL,1667857941
356,katobu,-4.9408,122.5276,75.74,91,97,1.16,ID,1667857829
357,alofi,-19.0595,-169.9187,80.49,61,75,16.02,NU,1667857942
358,astana,51.1801,71.446,24.75,93,100,4.47,KZ,1667857832
359,nizhneudinsk,54.9076,99.0276,22.69,84,83,3.51,RU,1667857942
360,borinskoye,52.4569,39.3713,36.09,82,100,5.7,RU,1667857942
361,moerai,-22.4333,-151.3333,72.88,79,10,14.0,PF,1667857943
362,sarny,51.338,26.6019,46.71,92,100,7.7,UA,1667857889
363,kununurra,-15.7667,128.7333,76.98,88,10,4.61,AU,1667857943
364,wainwright,52.839,-110.8572,6.58,94,100,15.59,CA,1667857944
365,kaitangata,-46.2817,169.8464,60.66,60,59,1.03,NZ,1667857749
366,sao filipe,14.8961,-24.4956,78.57,67,66,4.03,CV,1667857944
367,shimoda,34.6667,138.95,56.1,68,0,10.92,JP,1667857945
368,tessalit,20.1986,1.0114,75.06,13,32,9.46,ML,1667857945
369,mwinilunga,-11.7358,24.4293,60.71,97,96,1.57,ZM,1667857946
370,jalu,29.0331,21.5482,64.9,69,37,9.95,LY,1667857946
371,luderitz,-26.6481,15.1594,62.38,85,18,8.03,NA,1667857946
372,bucerias,20.75,-105.3333,82.98,71,3,5.46,MX,1667857691
373,quelimane,-17.8786,36.8883,77.59,84,22,7.65,MZ,1667857947
374,qasigiannguit,68.8193,-51.1922,-5.04,89,13,5.59,GL,1667857947
375,kalaikunda,22.35,87.25,69.37,64,12,3.89,IN,1667857948
376,dingle,10.9995,122.6711,76.06,92,59,5.48,PH,1667857948
377,shiyan,32.6475,110.7781,53.92,74,11,2.73,CN,1667857948
378,sorkjosen,69.8,20.9333,41.0,81,100,10.36,NO,1667857949
379,grafton,42.207,-71.6856,69.8,33,0,13.8,US,1667857949
380,okhotsk,59.3833,143.3,7.03,77,38,16.49,RU,1667857949
381,victoria falls,-17.9235,25.843,70.65,71,96,2.91,ZW,1667857950
382,baykit,61.67,96.37,10.17,98,89,3.44,RU,1667857950
383,port macquarie,-31.4333,152.9167,64.89,73,56,3.49,AU,1667857951
384,mahina,-17.5065,-149.489,82.17,74,20,12.66,PF,1667857874
385,kahului,20.8947,-156.47,89.62,60,20,25.32,US,1667857951
386,singarayakonda,15.25,80.0333,74.5,76,0,6.26,IN,1667857951
387,santa teresa,10.2341,-66.6631,89.42,75,93,1.77,VE,1667857952
388,namibe,-15.1961,12.1522,68.76,76,3,9.31,AO,1667857952
389,dingzhou,38.5131,114.9956,35.71,51,1,1.9,CN,1667857952
390,sao felipe,-14.8167,-41.3833,73.31,61,97,7.09,BR,1667857953
391,kamalasai,16.3384,103.5756,70.23,75,3,6.4,TH,1667857953
392,asau,46.4333,26.4,42.28,78,92,3.56,RO,1667857953
393,poli,-3.3333,36.8,60.96,89,78,4.79,TZ,1667857954
394,torit,4.4133,32.5678,77.38,59,98,1.7,SS,1667857954
395,mayskiy,47.6931,40.1025,35.01,78,90,8.61,RU,1667857954
396,ponta delgada,37.7333,-25.6667,63.5,88,40,8.05,PT,1667857955
397,largo,27.9095,-82.7873,84.2,59,40,15.01,US,1667857746
398,genhe,50.7833,121.5167,6.28,100,100,1.01,CN,1667857955
399,coria,39.9879,-6.5377,57.45,88,93,2.06,ES,1667857802
400,hovd,48.0056,91.6419,34.77,45,98,9.64,MN,1667857956
401,iki-burul,45.8208,44.6472,35.42,81,70,13.27,RU,1667857956
402,ozark,37.0209,-93.206,65.62,48,65,1.99,US,1667857956
403,tual,-5.6667,132.75,83.53,74,100,6.62,ID,1667857871
404,camacha,33.0833,-16.3333,62.02,100,20,2.3,PT,1667857957
405,limoux,42.9167,2.1667,55.74,85,92,4.88,FR,1667857957
406,coxim,-18.5067,-54.76,83.79,26,40,5.77,BR,1667857957
407,gboko,7.3179,8.9951,79.54,37,89,4.03,NG,1667857958
408,niimi,34.9833,133.4667,53.55,88,0,3.27,JP,1667857958
409,manjacaze,-24.7117,33.8828,71.4,92,38,4.83,MZ,1667857958
410,san patricio,28.017,-97.5169,86.72,64,0,12.39,US,1667857959
411,tukrah,32.5341,20.5791,68.0,76,12,10.02,LY,1667857959
412,imola,44.3523,11.7158,52.74,70,1,3.89,IT,1667857959
413,itarema,-2.9248,-39.9167,79.14,76,86,16.42,BR,1667857960
414,kanye,-24.9667,25.3327,61.84,95,100,7.07,BW,1667857960
415,waverly,42.7392,-84.6208,51.96,45,0,10.36,US,1667857960
416,gwembe,-16.4975,27.6069,66.09,79,100,0.65,ZM,1667857961
417,birsk,55.4211,55.5428,27.64,95,100,7.11,RU,1667857961
418,yatou,37.15,122.3833,50.02,87,0,5.35,CN,1667857961
419,fort dix,40.0298,-74.6185,75.29,29,0,9.22,US,1667857722
420,ginda,30.6945,78.4932,48.38,35,0,6.67,IN,1667857962
421,jinka,5.65,36.65,67.5,63,99,2.68,ET,1667857962
422,bara,10.3744,10.7288,76.91,29,25,6.64,NG,1667857962
423,bonthe,7.5264,-12.505,78.57,85,99,5.08,SL,1667857859
424,henties bay,-22.116,14.2845,62.76,87,2,4.56,NA,1667857963
425,yonezawa,37.9167,140.1167,45.84,85,5,2.89,JP,1667857963
426,tateyama,34.9833,139.8667,61.38,80,1,11.83,JP,1667857964
427,mahajanga,-15.7167,46.3167,78.82,89,40,4.61,MG,1667857964
428,pizarro,4.9533,-77.366,78.84,80,62,6.26,CO,1667857964
429,djambala,-2.5447,14.7533,67.57,93,91,1.34,CG,1667857965
430,alekseyevsk,57.8406,108.3492,21.88,93,83,10.54,RU,1667857965
431,abalak,58.1286,68.5944,23.41,96,33,5.53,RU,1667857965
432,egvekinot,66.3167,-179.1667,19.0,91,100,13.27,RU,1667857966
433,salalah,17.0151,54.0924,75.69,70,0,2.59,OM,1667857966
434,portland,45.5234,-122.6762,43.84,91,100,13.8,US,1667857966
435,port moresby,-9.4431,147.1797,78.22,83,20,5.75,PG,1667857927
436,port lincoln,-34.7333,135.8667,72.59,48,100,14.43,AU,1667857967
437,nushki,29.5542,66.0215,64.54,43,27,4.21,PK,1667857967
438,horta,38.5333,-28.6333,62.24,68,20,11.5,PT,1667857968
439,eureka,40.8021,-124.1637,53.92,81,100,7.0,US,1667857883
440,kawalu,-7.3817,108.2082,70.23,97,100,1.36,ID,1667857968
441,worthington,40.0931,-83.018,64.45,24,0,9.22,US,1667857841
442,north myrtle beach,33.816,-78.68,79.34,73,100,1.01,US,1667857968
443,riyadh,24.6877,46.7219,73.54,65,0,4.68,SA,1667857790
444,camacupa,-12.0167,17.4833,64.18,90,81,2.84,AO,1667857969
445,shingu,33.7333,135.9833,54.45,78,0,6.6,JP,1667857969
446,poshekhonye,58.4993,39.1353,34.77,94,100,10.67,RU,1667857969
447,vestmannaeyjar,63.4427,-20.2734,43.11,79,99,18.19,IS,1667857970
448,claremore,36.3126,-95.6161,73.15,61,100,4.0,US,1667857970
449,gravdal,68.1214,13.5031,37.29,93,20,9.22,NO,1667857970
450,tautira,-17.7333,-149.15,76.01,87,1,12.03,PF,1667857971
451,rio gallegos,-51.6226,-69.2181,75.25,29,75,17.27,AR,1667857971
452,yumen,40.2833,97.2,35.91,39,26,6.62,CN,1667857972
453,alberton,46.8168,-64.0654,59.13,54,31,27.49,CA,1667857972
454,labrea,-7.2586,-64.7981,88.5,41,84,2.13,BR,1667857972
455,nador,35.174,-2.9287,62.85,77,0,2.3,MA,1667857825
456,aksu,41.1231,80.2644,43.77,41,16,2.86,CN,1667857973
457,oistins,13.0667,-59.5333,82.49,78,20,16.11,BB,1667857925
458,batemans bay,-35.7167,150.1833,63.1,66,6,3.53,AU,1667857973
459,council bluffs,41.2619,-95.8608,55.49,25,40,18.41,US,1667857696
460,la sarre,48.8002,-79.1996,33.53,70,99,15.99,CA,1667857862
461,rudozem,41.4833,24.85,47.59,76,79,3.49,BG,1667857974
462,lajedo,-8.6636,-36.32,68.81,93,100,1.72,BR,1667857974
463,revelstoke,50.9832,-118.2023,26.62,86,100,4.61,CA,1667857814
464,zhangjiakou,40.81,114.8794,33.98,30,0,0.38,CN,1667857974
465,baia de aries,46.3833,23.2833,48.06,89,100,2.33,RO,1667857975
466,harper,4.375,-7.7169,78.94,83,97,7.85,LR,1667857975
467,dinajpur,25.6272,88.6386,68.09,78,2,4.5,BD,1667857975
468,hohhot,40.8106,111.6522,21.49,68,0,4.47,CN,1667857976
469,poum,-20.2333,164.0167,78.01,80,98,11.23,NC,1667857976
470,mazatlan,23.2167,-106.4167,82.02,79,0,7.0,MX,1667857723
471,aban,56.67,96.06,23.7,89,81,6.91,RU,1667857976
472,cayambe,0.05,-78.1333,61.86,89,95,1.7,EC,1667857977
473,taoudenni,22.6783,-3.9836,77.74,18,5,10.6,ML,1667857977
474,broken hill,-31.95,141.4333,69.91,50,8,8.97,AU,1667857977
475,bogashevo,56.3683,85.1447,28.98,93,75,0.0,RU,1667857978
476,flinders,-34.5833,150.8552,69.39,73,23,5.01,AU,1667857978
477,port augusta,-32.5,137.7667,76.26,32,81,10.0,AU,1667857978
478,rocha,-34.4833,-54.3333,58.98,79,0,9.26,UY,1667857979
479,vredendal,-31.6683,18.5012,57.85,89,0,4.94,ZA,1667857979
480,kpalime,6.9,0.6333,74.68,84,99,1.81,TG,1667857979
481,kassala,15.451,36.4,83.1,45,4,7.85,SD,1667857980
482,little current,45.9793,-81.9248,44.42,62,67,20.24,CA,1667857980
483,adrar,20.5022,-10.0711,78.51,15,0,8.75,MR,1667857980
484,youhao,47.8667,128.8333,25.9,79,100,3.18,CN,1667857981
485,maragogi,-9.0122,-35.2225,77.41,79,92,3.31,BR,1667857981
486,saint anthony,45.0205,-93.218,37.24,60,0,3.44,US,1667857981
487,half moon bay,37.4636,-122.4286,63.9,54,75,16.11,US,1667857982
488,oban,56.4127,-5.4706,55.74,89,100,20.09,GB,1667857983
489,olafsvik,64.8945,-23.7142,42.87,75,98,13.62,IS,1667857983
490,clyde river,70.4692,-68.5914,12.43,67,75,6.91,CA,1667857700
491,chibombo,-14.6569,28.0706,66.67,90,100,2.42,ZM,1667857984
492,banda aceh,5.5577,95.3222,78.93,77,100,7.76,ID,1667857984
493,guilin,25.2819,110.2864,59.11,51,93,3.27,CN,1667857985
494,peleduy,59.6289,112.7406,20.68,93,99,8.41,RU,1667857985
495,husavik,66.0449,-17.3389,39.88,92,100,10.11,IS,1667857986
496,syracuse,37.0881,15.2792,60.39,67,0,3.87,IT,1667857802
497,bar harbor,44.3876,-68.2039,63.25,73,11,17.54,US,1667857790
498,point pedro,9.8167,80.2333,77.68,85,98,13.49,LK,1667857986
499,winchester,51.0651,-1.3187,59.65,80,100,26.46,GB,1667857987
500,andreapol,56.6513,32.2664,39.04,98,100,8.5,RU,1667857988
501,husum,54.4858,9.0524,55.29,94,100,16.82,DE,1667857988
502,yar-sale,66.8333,70.8333,21.7,94,100,6.8,RU,1667857989
503,port lavaca,28.615,-96.6261,87.31,79,0,12.66,US,1667857959
504,puerto escondido,15.85,-97.0667,84.04,76,90,5.03,MX,1667857989
505,adre,13.4667,22.2,79.65,19,86,13.67,TD,1667857990
506,margate,51.3813,1.3862,59.9,76,100,8.01,GB,1667857989
507,mandalgovi,45.7625,106.2708,31.5,37,59,8.99,MN,1667857990
508,marienburg,54.0359,19.0266,47.88,87,70,11.16,PL,1667857991
509,bayana,26.9,77.2833,74.52,46,67,2.28,IN,1667857992
510,iberia,29.9502,-91.7507,84.27,56,14,9.06,US,1667857992
511,hope,33.6671,-93.5916,73.45,90,85,8.57,US,1667857769
512,chapadinha,-3.7417,-43.3603,74.62,94,100,3.29,BR,1667857993
513,quang ngai,15.1167,108.8,70.09,91,62,6.35,VN,1667857993
514,caramay,10.1815,119.236,79.09,86,99,2.44,PH,1667857994
515,opuwo,-18.0607,13.84,65.23,43,0,5.68,NA,1667857994
516,krasnyy klyuch,55.3863,56.6529,28.51,93,100,6.85,RU,1667857995
517,bantry,51.6833,-9.45,51.78,81,74,17.63,IE,1667857995
518,bubaque,11.2833,-15.8333,83.79,66,92,12.1,GW,1667857996
519,jardim,-21.4803,-56.1381,73.2,46,44,6.51,BR,1667857998
520,riosucio,5.4216,-75.7032,64.09,92,63,2.37,CO,1667857998
521,ulaangom,49.9811,92.0667,21.96,86,65,0.65,MN,1667857862
522,baruun-urt,46.6806,113.2792,27.39,41,2,11.54,MN,1667857998
523,maniitsoq,65.4167,-52.9,17.2,55,0,7.63,GL,1667857999
524,daru,-9.0763,143.2092,78.96,88,100,5.3,PG,1667857999
525,nueva loja,0.0847,-76.8828,89.62,58,40,6.91,EC,1667857999
526,kaduqli,11.0167,29.7167,78.19,27,94,8.03,SD,1667858000
527,mitsamiouli,-11.3847,43.2844,77.5,82,2,12.64,KM,1667858000
528,marsh harbour,26.5412,-77.0636,79.65,72,2,27.38,BS,1667858000
529,amarante do maranhao,-5.5667,-46.7422,76.42,83,88,3.65,BR,1667858001
530,avera,33.194,-82.5271,81.37,59,14,4.72,US,1667858001
531,santa ines,-3.6667,-45.38,77.05,88,100,5.73,BR,1667857752
532,nelson bay,-32.7167,152.15,70.09,77,6,3.0,AU,1667858001
533,bilibino,68.0546,166.4372,-7.85,97,59,4.23,RU,1667858002
534,plouzane,48.3833,-4.6167,57.52,93,75,24.16,FR,1667858002
535,shima,24.4478,117.8111,69.82,89,60,2.26,CN,1667858003
536,fukue,32.6881,128.8419,63.81,54,0,12.93,JP,1667858003
537,raymondville,26.4815,-97.7831,89.71,51,18,14.05,US,1667858003
538,evanston,42.0411,-87.6901,54.28,48,49,5.01,US,1667858004
539,cumaral,4.2708,-73.4867,76.55,86,82,1.77,CO,1667858004
540,batticaloa,7.7102,81.6924,76.98,86,100,5.23,LK,1667858005
541,irun,43.339,-1.7894,71.46,40,0,16.11,ES,1667858005
542,aripuana,-9.1667,-60.6333,88.03,35,44,1.36,BR,1667858006
543,maple creek,49.9168,-109.4848,14.41,85,100,12.66,CA,1667858006
544,chicama,-7.8447,-79.1469,63.14,68,22,8.99,PE,1667858006
545,ruston,32.5232,-92.6379,81.59,74,20,9.22,US,1667858007
546,severo-kurilsk,50.6789,156.125,34.63,82,86,10.54,RU,1667858007
547,gornopravdinsk,60.05,69.9,19.53,98,95,5.48,RU,1667858007
548,cervo,43.6702,-7.4101,59.97,67,82,19.37,ES,1667858008
549,lakes entrance,-37.8811,147.981,68.16,60,4,1.66,AU,1667858008
550,weifang,36.71,119.1019,46.15,92,2,1.19,CN,1667858008
551,migori,-1.0634,34.4731,64.94,87,98,2.48,KE,1667858009
552,pokhara,28.2333,83.9833,61.36,56,90,3.51,NP,1667858009
553,boende,-0.2167,20.8667,70.52,98,100,0.56,CD,1667858009
554,kuvshinovo,57.0295,34.1725,36.84,98,100,8.03,RU,1667858010
555,portoferraio,42.8115,10.3146,58.51,62,2,8.43,IT,1667858010
556,oriximina,-1.7656,-55.8661,76.51,87,99,0.18,BR,1667858010
557,ixtapa,20.7,-105.2,82.22,72,6,7.0,MX,1667858011
558,jiamusi,46.8333,130.35,28.58,74,24,7.16,CN,1667858011
559,pinawa,50.1489,-95.8811,31.78,67,100,1.72,CA,1667858011
560,mecca,21.4267,39.8261,77.0,66,0,3.49,SA,1667857848
561,yeppoon,-23.1333,150.7333,69.58,71,30,12.88,AU,1667858012
562,takhli,15.2634,100.3438,69.84,92,0,4.59,TH,1667858012
563,ihosy,-22.4,46.1167,67.53,88,100,3.62,MG,1667858012
564,agadez,19.75,10.25,69.06,20,0,10.31,NE,1667858013
565,presidente epitacio,-21.7633,-52.1156,72.39,41,0,5.66,BR,1667858013
566,soyo,-6.1349,12.3689,78.57,84,60,7.31,AO,1667858013
567,muscat,23.6139,58.5922,83.41,53,17,4.32,OM,1667857904
568,portobelo,9.55,-79.65,78.04,94,100,9.75,PA,1667858014
569,suez,29.9737,32.5263,67.35,54,0,5.82,EG,1667858014
570,gladstone,-23.85,151.25,71.53,60,1,9.22,AU,1667858015
571,camalu,30.85,-116.0667,68.94,63,73,13.73,MX,1667858015
572,viransehir,37.2353,39.7631,61.23,47,100,14.03,TR,1667858015
